City_ID,City,Lat,Lng,Max Temp,Humidity,Cloudiness,Wind Speed,Country,Date
0,imbituba,-28.24,-48.67,82.4,61,20,10.29,BR,1605364003
1,bugiri,0.57,33.74,75.81,78,73,4.65,UG,1605364003
2,bredasdorp,-34.53,20.04,64.4,59,100,19.46,ZA,1605364003
3,muriwai beach,-36.82,174.45,54.0,93,0,4.18,NZ,1605364004
4,ilulissat,69.22,-51.1,12.2,66,75,24.16,GL,1605364004
5,hermanus,-34.42,19.23,61.0,73,94,4.0,ZA,1605364004
6,ixtapa,20.7,-105.2,72.0,94,75,3.36,MX,1605363739
7,victoria,22.29,114.16,73.0,76,100,1.99,HK,1605363786
8,balabac,7.99,117.06,83.14,79,0,9.93,PH,1605364004
9,rikitea,-23.12,-134.97,75.36,82,62,14.65,PF,1605364004
10,gorontalo,0.54,123.06,76.75,86,52,2.73,ID,1605363906
11,broome,42.25,-75.83,41.0,59,1,6.93,US,1605364004
12,yellowknife,62.46,-114.35,3.2,77,90,4.7,CA,1605364004
13,mitu,1.2,-70.17,84.94,62,68,3.58,CO,1605364004
14,ballangen,68.34,16.83,44.6,56,96,11.41,NO,1605364004
15,turukhansk,65.82,87.98,-12.41,90,99,3.13,RU,1605364004
16,ust-ilimsk,58.0,102.66,13.28,96,75,4.21,RU,1605364004
17,sao joao da barra,-21.64,-41.05,82.4,74,75,2.24,BR,1605363838
18,atuona,-9.8,-139.03,77.49,73,86,15.66,PF,1605364004
19,sao filipe,14.9,-24.5,82.89,57,0,6.53,CV,1605364004
20,pevek,69.7,170.31,-0.9,93,100,8.79,RU,1605364005
21,clyde river,70.47,-68.59,21.2,73,90,20.8,CA,1605364005
22,bayonne,43.33,-1.42,68.0,45,0,10.29,FR,1605364005
23,albany,42.6,-73.97,44.01,59,25,10.13,US,1605364005
24,ushuaia,-54.8,-68.3,39.2,80,75,16.11,AR,1605363933
25,longyearbyen,78.22,15.64,42.8,75,75,13.87,SJ,1605363991
26,tasiilaq,65.61,-37.64,26.6,68,75,9.17,GL,1605364005
27,chokurdakh,70.63,147.92,-19.32,88,51,5.64,RU,1605364005
28,bambous virieux,-20.34,57.76,78.01,94,40,2.24,MU,1605364005
29,esperance,-33.87,121.9,59.0,93,90,17.22,AU,1605364005
30,urubicha,-15.38,-62.95,92.98,40,56,6.24,BO,1605364005
31,xuanzhou,30.95,118.76,56.64,77,0,8.97,CN,1605364005
32,mahebourg,-20.41,57.7,75.2,94,40,2.24,MU,1605364006
33,hasaki,35.73,140.83,44.6,93,0,2.24,JP,1605364006
34,port alfred,-33.59,26.89,69.53,74,59,20.0,ZA,1605364006
35,qaanaaq,77.48,-69.36,2.05,85,92,10.85,GL,1605364006
36,hobart,-42.88,147.33,55.4,58,90,5.82,AU,1605364006
37,neiafu,-18.65,-173.98,77.0,78,20,8.05,TO,1605364006
38,zaida,34.06,72.47,59.0,87,75,3.4,PK,1605364006
39,ribeira grande,38.52,-28.7,69.8,88,40,19.46,PT,1605364006
40,puerto ayora,-0.74,-90.35,69.01,91,97,4.0,EC,1605364006
41,bluff,-46.6,168.33,63.0,60,100,8.01,NZ,1605364006
42,chumikan,54.72,135.31,25.34,94,89,20.11,RU,1605364006
43,berlevag,70.86,29.09,40.48,77,44,26.75,NO,1605364006
44,mataura,-46.19,168.86,63.0,60,100,8.01,NZ,1605364006
45,yerofey pavlovich,53.97,121.97,18.54,91,100,2.68,RU,1605364006
46,gallup,35.53,-108.74,39.2,51,1,8.05,US,1605364006
47,geraldton,-28.77,114.6,64.4,72,40,13.87,AU,1605364007
48,saint-augustin,51.23,-58.65,34.12,80,100,12.88,CA,1605364007
49,shimoda,34.67,138.95,52.0,85,0,5.82,JP,1605364007
50,georgetown,5.41,100.34,84.2,79,20,4.7,MY,1605364007
51,lavra,41.26,-8.72,62.6,93,75,16.11,PT,1605364007
52,vaini,-21.2,-175.2,75.2,88,20,5.82,TO,1605364007
53,gizo,-8.1,156.84,82.76,76,34,3.85,SB,1605364007
54,bismarck,46.81,-100.78,32.0,85,1,4.7,US,1605363962
55,beisfjord,68.38,17.6,44.6,56,70,11.41,NO,1605364007
56,coihaique,-45.58,-72.07,51.8,50,40,5.82,CL,1605364007
57,mehamn,71.04,27.85,40.24,76,22,25.9,NO,1605364007
58,masyaf,35.07,36.34,73.4,38,75,4.7,SY,1605364007
59,arraial do cabo,-22.97,-42.03,82.4,78,90,6.93,BR,1605364007
60,gravdal,68.12,13.5,46.4,70,40,17.22,NO,1605364007
61,elbrus,43.26,42.64,27.21,78,49,0.98,RU,1605364008
62,gbadolite,4.28,21.02,87.42,55,43,4.09,CD,1605364008
63,avera,33.19,-82.53,57.0,82,90,5.82,US,1605364008
64,polunochnoye,60.87,60.42,10.74,92,0,2.8,RU,1605364008
65,maningrida,-12.07,134.27,82.81,73,0,3.85,AU,1605364008
66,korla,41.76,86.15,43.65,52,67,9.17,CN,1605364008
67,delta del tigre,-34.76,-56.39,73.0,73,90,4.7,UY,1605364008
68,mar del plata,-38.0,-57.56,68.0,88,75,9.17,AR,1605364008
69,edgewater,28.99,-80.9,75.2,78,75,12.75,US,1605364008
70,ozieri,40.59,9.0,70.0,77,40,6.93,IT,1605364008
71,east london,-33.02,27.91,69.8,68,75,27.51,ZA,1605364001
72,chernyshevskiy,63.01,112.47,4.06,95,97,7.54,RU,1605364008
73,luderitz,-26.65,15.16,67.28,62,0,19.73,NA,1605364008
74,jamestown,42.1,-79.24,39.0,74,90,5.82,US,1605364009
75,thompson,55.74,-97.86,15.8,100,90,6.93,CA,1605364009
76,andradina,-20.9,-51.38,89.35,45,33,7.25,BR,1605364009
77,tawang,27.58,91.87,41.88,66,2,5.1,IN,1605364009
78,mineros,-17.12,-63.23,84.2,70,75,17.22,BO,1605364009
79,tuktoyaktuk,69.45,-133.04,10.4,92,90,27.51,CA,1605364009
80,busselton,-33.65,115.33,54.0,98,30,14.92,AU,1605364009
81,roald,62.58,6.13,50.0,66,75,10.29,NO,1605364009
82,punta arenas,-53.15,-70.92,42.8,62,75,31.09,CL,1605364009
83,aswan,24.09,32.91,85.15,19,0,8.03,EG,1605364010
84,lodwar,3.12,35.6,94.42,28,69,16.28,KE,1605364010
85,avarua,-21.21,-159.78,69.8,94,11,2.24,CK,1605364010
86,saint george,37.1,-113.58,37.4,59,20,7.16,US,1605363867
87,troitsko-pechorsk,62.71,56.2,10.87,93,84,2.75,RU,1605364010
88,ahipara,-35.17,173.17,53.82,82,0,1.79,NZ,1605364010
89,tuatapere,-46.13,167.68,63.0,60,100,8.01,NZ,1605364010
90,orshanka,56.92,47.89,18.32,94,65,4.54,RU,1605364010
91,kananga,-5.9,22.42,70.92,94,100,6.87,CD,1605364010
92,saint-philippe,-21.36,55.77,75.2,78,75,9.17,RE,1605364010
93,cidreira,-30.18,-50.21,74.57,77,0,10.0,BR,1605364010
94,thunder bay,48.4,-89.32,33.01,100,90,4.7,CA,1605363743
95,nouakchott,18.09,-15.98,96.8,8,0,17.22,MR,1605364010
96,provideniya,64.38,-173.3,18.21,89,0,7.11,RU,1605364010
97,corinto,37.94,22.96,66.0,46,3,1.99,GR,1605363857
98,omsukchan,62.53,155.8,5.18,92,100,3.18,RU,1605364010
99,chitral,35.85,71.79,44.94,59,100,7.25,PK,1605364010
100,letlhakane,-21.42,25.58,90.37,20,65,5.64,BW,1605364010
101,guane,22.2,-84.09,78.13,85,7,9.8,CU,1605364011
102,pemangkat,1.17,108.97,77.63,85,100,2.82,ID,1605364011
103,fukuma,33.77,130.47,53.01,76,10,2.24,JP,1605363752
104,baykalovo,57.4,63.77,11.77,93,74,10.45,RU,1605364011
105,byron bay,-28.65,153.62,73.4,94,75,9.17,AU,1605364011
106,kenai,60.55,-151.26,27.0,85,90,3.36,US,1605364011
107,hithadhoo,-0.6,73.08,83.95,76,100,22.06,MV,1605363810
108,castro,-24.79,-50.01,80.19,48,6,6.17,BR,1605364011
109,talgar,43.3,77.24,33.8,86,90,8.95,KZ,1605364011
110,ayorou,14.73,0.92,94.12,11,36,10.76,NE,1605364011
111,namatanai,-3.67,152.43,81.09,77,2,11.63,PG,1605364011
112,cayenne,4.93,-52.33,82.4,88,75,2.24,GF,1605363834
113,jiwani,25.05,61.74,78.24,67,0,13.4,PK,1605363866
114,cape town,-33.93,18.42,66.99,59,75,14.99,ZA,1605363817
115,iqaluit,63.75,-68.51,21.2,57,75,6.93,CA,1605363927
116,olafsvik,64.89,-23.71,32.86,89,28,14.03,IS,1605364011
117,port lincoln,-34.73,135.87,65.19,66,79,8.16,AU,1605364012
118,faya,18.39,42.45,73.4,72,40,9.17,SA,1605364012
119,kingman,35.19,-114.05,44.6,48,1,0.58,US,1605363890
120,ossora,59.24,163.07,27.27,98,100,10.71,RU,1605364012
121,gamba,-2.65,10.0,81.77,80,77,10.96,GA,1605364012
122,moussoro,13.64,16.49,94.35,11,0,19.62,TD,1605364012
123,khatanga,71.97,102.5,-7.98,90,100,16.11,RU,1605364012
124,kavieng,-2.57,150.8,83.34,77,39,15.82,PG,1605364012
125,new norfolk,-42.78,147.06,55.4,58,90,5.82,AU,1605364012
126,nayoro,44.35,142.46,32.45,95,0,3.85,JP,1605364012
127,merauke,-8.47,140.33,79.34,75,44,12.17,ID,1605364012
128,roebourne,-20.78,117.13,76.44,60,0,19.08,AU,1605364012
129,faanui,-16.48,-151.75,79.09,79,76,10.13,PF,1605364012
130,abeche,13.83,20.83,93.63,10,0,14.34,TD,1605364012
131,trincomalee,8.57,81.23,82.29,80,100,13.22,LK,1605363910
132,katsuura,35.13,140.3,59.0,67,0,6.93,JP,1605364013
133,saint-ambroise,48.55,-71.33,32.0,100,86,4.7,CA,1605364013
134,bagdarin,54.43,113.6,12.7,87,0,3.38,RU,1605364013
135,povenets,62.85,34.83,36.25,91,100,6.82,RU,1605364013
136,seoul,37.57,126.98,48.2,87,75,0.92,KR,1605363824
137,barrow,71.29,-156.79,17.6,72,90,18.34,US,1605364013
138,pokaran,26.92,71.92,78.39,25,1,6.87,IN,1605364013
139,methoni,36.82,21.7,69.8,46,20,9.17,GR,1605364013
140,nekhayevskiy,50.41,41.76,30.99,82,12,1.01,RU,1605364014
141,atar,20.52,-13.05,93.76,12,77,18.01,MR,1605364014
142,west bay,19.37,-81.42,84.2,79,20,8.05,KY,1605364014
143,san borja,-14.82,-66.85,86.77,62,66,5.1,BO,1605364014
144,chuy,-33.7,-53.46,75.76,62,23,5.06,UY,1605364014
145,sakakah,29.97,40.21,73.4,28,40,10.29,SA,1605364014
146,iracoubo,5.48,-53.2,85.21,70,99,10.49,GF,1605364014
147,djambala,-2.54,14.75,76.62,83,100,6.64,CG,1605364014
148,lasa,46.62,10.7,48.99,65,5,9.17,IT,1605364014
149,grand-santi,4.25,-54.38,87.82,56,100,4.41,GF,1605364014
150,aljezur,37.32,-8.8,68.0,95,75,4.0,PT,1605363804
151,kamaishi,39.27,141.88,44.8,69,0,7.4,JP,1605364014
152,asau,46.43,26.4,48.2,70,20,4.7,RO,1605364014
153,college,64.86,-147.8,15.8,85,90,2.44,US,1605364014
154,butaritari,3.07,172.79,81.16,69,0,6.73,KI,1605364015
155,sterling,39.01,-77.43,50.0,66,75,7.9,US,1605364015
156,upernavik,72.79,-56.15,12.47,91,99,12.33,GL,1605364015
157,guerrero negro,27.98,-114.06,61.5,77,0,11.5,MX,1605364015
158,grand gaube,-20.01,57.66,78.01,76,9,3.0,MU,1605364015
159,husavik,66.04,-17.34,33.8,86,90,8.05,IS,1605364015
160,dikson,73.51,80.55,23.4,99,100,9.82,RU,1605364015
161,poum,-20.23,164.02,77.43,83,15,13.4,NC,1605364015
162,nanortalik,60.14,-45.24,26.29,87,0,11.72,GL,1605364015
163,hambantota,6.12,81.12,80.6,94,40,4.7,LK,1605364015
164,manzanillo,20.34,-77.12,78.39,84,6,11.45,CU,1605364015
165,palmer,42.16,-72.33,44.6,75,40,16.11,US,1605363808
166,algiers,36.75,3.04,71.6,68,75,8.05,DZ,1605363950
167,wanning,18.8,110.4,76.91,88,100,20.62,CN,1605364016
168,la brea,15.8,-85.97,82.4,74,20,3.0,HN,1605364016
169,zhigansk,66.77,123.37,2.03,94,97,8.14,RU,1605364016
170,san quintin,30.48,-115.95,44.01,40,0,8.01,MX,1605364016
171,sitka,57.05,-135.33,37.4,86,90,6.93,US,1605364016
172,dingle,11.0,122.67,77.7,89,3,6.87,PH,1605364016
173,mount gambier,-37.83,140.77,50.0,93,0,6.93,AU,1605363782
174,yaan,7.38,8.57,95.07,35,53,2.3,NG,1605364016
175,nikolskoye,59.7,30.79,34.0,80,90,4.47,RU,1605364016
176,vila franca do campo,37.72,-25.43,66.2,93,75,14.99,PT,1605364016
177,beringovskiy,63.05,179.32,14.88,89,97,9.78,RU,1605364016
178,baturaja,-4.13,104.17,77.11,90,70,1.05,ID,1605364016
179,narsaq,60.92,-46.05,15.8,56,75,5.82,GL,1605364016
180,mayo,38.89,-76.51,54.0,57,1,8.05,US,1605364016
181,zhezkazgan,47.8,67.71,26.26,93,100,8.81,KZ,1605364017
182,bafoulabe,13.81,-10.83,97.84,9,0,9.19,ML,1605364017
183,huarmey,-10.07,-78.15,65.88,74,81,4.72,PE,1605364017
184,westport,41.14,-73.36,46.99,65,1,6.93,US,1605363977
185,ayan,56.45,138.17,24.44,92,71,8.32,RU,1605364017
186,alexandria,31.22,29.96,73.4,64,40,17.22,EG,1605364017
187,san cristobal,7.77,-72.22,78.8,74,40,4.7,VE,1605364017
188,carballo,43.21,-8.69,63.0,80,100,13.0,ES,1605364017
189,brae,60.4,-1.35,50.0,87,20,21.92,GB,1605364017
190,saldanha,-33.01,17.94,64.4,68,98,16.11,ZA,1605364017
191,batagay,67.63,134.63,-15.81,85,78,2.06,RU,1605364017
192,yulara,-25.24,130.99,80.6,21,0,3.36,AU,1605364017
193,svetlaya,46.54,138.33,35.65,76,1,7.0,RU,1605364017
194,guanica,17.97,-66.91,84.99,58,97,5.35,PR,1605364017
195,abha,18.22,42.51,73.4,72,40,9.17,SA,1605364017
196,lata,40.16,-8.33,64.99,82,96,3.0,PT,1605364018
197,saint-felix-de-valois,46.17,-73.43,39.2,86,38,6.93,CA,1605364018
198,jining,35.41,116.58,55.29,65,0,6.22,CN,1605364018
199,leh,34.17,77.58,33.8,71,100,4.97,IN,1605364018
200,harper,4.38,-7.72,82.56,74,35,5.59,LR,1605364018
201,lebu,-37.62,-73.65,54.1,64,0,11.34,CL,1605364018
202,shadegan,30.65,48.66,77.0,38,0,9.17,IR,1605364018
203,pyaozerskiy,65.83,31.17,34.99,88,100,10.09,RU,1605364018
204,dauphin,51.15,-100.05,28.4,93,90,3.36,CA,1605363746
205,nehe,48.48,124.83,29.64,88,0,4.56,CN,1605364018
206,khasan,42.43,130.64,42.98,78,0,4.41,RU,1605364018
207,carnarvon,-24.87,113.63,69.8,64,40,13.87,AU,1605364018
208,port-gentil,-0.72,8.78,86.0,74,40,12.75,GA,1605364018
209,xingyi,24.19,102.82,46.76,63,0,1.1,CN,1605364018
210,ostrovnoy,68.05,39.51,36.3,89,100,15.12,RU,1605364018
211,namalenga,-10.95,39.1,87.48,46,99,4.43,TZ,1605364019
212,hilo,19.73,-155.09,71.6,78,40,3.36,US,1605363771
213,kaduy,59.2,37.15,33.8,100,75,4.0,RU,1605364019
214,linjiang,41.81,126.91,36.79,74,99,2.17,CN,1605364019
215,fuerte olimpo,-21.04,-57.87,94.77,40,0,8.84,PY,1605364019
216,cleveland,41.5,-81.7,37.99,69,1,9.17,US,1605364009
217,vestmannaeyjar,63.44,-20.27,35.6,74,0,17.22,IS,1605364019
218,uray,60.12,64.78,10.51,92,17,8.14,RU,1605364019
219,buraydah,26.33,43.98,75.2,47,0,8.05,SA,1605364019
220,patawag,8.11,122.62,80.82,84,42,8.9,PH,1605364019
221,kohat,33.58,71.45,55.4,93,90,9.17,PK,1605364019
222,gravelbourg,49.88,-106.55,26.6,79,50,16.11,CA,1605364019
223,dhola,21.88,71.78,86.0,58,20,2.24,IN,1605364019
224,beloha,-25.17,45.05,72.72,50,0,17.65,MG,1605364019
225,bethel,41.37,-73.41,44.6,70,1,3.36,US,1605364019
226,kokopo,-4.35,152.26,77.76,84,22,4.43,PG,1605364020
227,taoudenni,22.68,-3.98,90.61,12,0,10.02,ML,1605364020
228,vila velha,-20.33,-40.29,84.2,66,75,10.29,BR,1605364020
229,qaqortoq,60.72,-46.03,15.8,56,75,5.82,GL,1605364020
230,arona,28.1,-16.68,75.99,83,0,16.11,ES,1605363871
231,borovoy,55.43,86.08,21.2,85,40,4.47,RU,1605364020
232,buala,-8.14,159.59,81.43,78,17,5.53,SB,1605364020
233,panambi,-28.29,-53.5,89.6,35,0,10.29,BR,1605364020
234,barentu,15.11,37.59,87.89,23,1,14.63,ER,1605364020
235,san lawrenz,36.06,14.2,72.0,60,20,6.93,MT,1605364020
236,port macquarie,-31.43,152.92,61.0,100,4,3.69,AU,1605364020
237,hualmay,-11.1,-77.61,66.04,73,73,7.14,PE,1605364020
238,norman wells,65.28,-126.83,-25.6,74,5,1.95,CA,1605364020
239,bulgan,48.81,103.53,25.2,90,86,2.44,MN,1605364021
240,san patricio,28.02,-97.52,77.0,100,75,8.05,US,1605364021
241,kapaa,22.08,-159.32,77.0,83,75,10.29,US,1605364021
242,vagur,61.47,-6.81,47.71,84,26,11.27,FO,1605364021
243,mandalgovi,45.76,106.27,26.82,91,43,11.05,MN,1605364021
244,mount isa,-20.73,139.5,80.6,65,74,3.36,AU,1605364021
245,muravlenko,63.79,74.52,-12.78,90,13,4.14,RU,1605364021
246,plerin,48.54,-2.78,60.01,82,100,13.87,FR,1605364021
247,vysokogornyy,50.12,139.15,19.65,96,82,6.13,RU,1605364021
248,catuday,16.29,119.81,80.71,82,36,5.06,PH,1605364021
249,torbay,47.67,-52.73,37.0,95,90,16.11,CA,1605364021
250,santa rosa,14.31,121.11,82.4,78,20,3.36,PH,1605363986
251,boa vista,2.82,-60.67,87.8,58,75,5.82,BR,1605363757
252,hofn,64.25,-15.21,40.21,69,0,13.04,IS,1605364021
253,kieta,-6.22,155.63,80.17,77,8,4.03,PG,1605364022
254,dhidhdhoo,6.88,73.1,83.61,77,100,8.55,MV,1605364022
255,rochester,43.15,-77.62,42.01,69,75,12.75,US,1605363955
256,berdigestyakh,62.1,126.7,11.03,96,96,4.56,RU,1605364022
257,felanitx,39.47,3.15,73.4,64,40,9.17,ES,1605364022
258,san javier,37.81,-0.84,68.0,88,20,3.36,ES,1605364022
259,vieux-habitants,16.06,-61.77,84.2,70,20,9.17,GP,1605364022
260,lavrentiya,65.58,-171.0,22.69,91,97,12.24,RU,1605364022
261,kaitangata,-46.28,169.85,60.01,64,100,6.49,NZ,1605364022
262,danielskuil,-28.19,23.54,85.39,18,41,12.35,ZA,1605364022
263,vieques,18.43,-65.83,82.4,74,75,11.41,PR,1605364022
264,laguna,38.42,-121.42,51.01,93,90,5.82,US,1605364022
265,tuskegee,32.42,-85.69,57.99,100,0,1.99,US,1605364022
266,port hedland,-20.32,118.57,78.8,69,0,13.87,AU,1605364022
267,arawa,-6.21,155.54,78.37,80,13,3.27,PG,1605364022
268,severo-kurilsk,50.68,156.12,43.56,92,100,12.84,RU,1605364022
269,marystown,47.17,-55.15,39.99,100,100,15.99,CA,1605364023
270,bjornevatn,69.67,29.98,35.6,83,75,23.04,NO,1605364023
271,chachapoyas,-6.23,-77.87,59.47,84,100,3.04,PE,1605364023
272,bowen,-20.02,148.23,71.6,94,2,4.7,AU,1605364023
273,havre-saint-pierre,50.23,-63.6,33.8,96,90,9.17,CA,1605364023
274,balkanabat,39.51,54.37,49.86,47,0,2.35,TM,1605364023
275,narasannapeta,18.42,84.05,77.43,67,0,10.47,IN,1605364023
276,tallahassee,30.44,-84.28,66.99,55,1,8.05,US,1605363930
277,lorengau,-2.02,147.27,83.25,75,59,8.52,PG,1605364023
278,atemar,54.18,45.41,29.89,94,100,4.14,RU,1605364023
279,bengkulu,-3.8,102.27,79.83,87,100,3.49,ID,1605363932
280,hattiesburg,31.33,-89.29,61.0,87,1,5.82,US,1605363816
281,traverse city,44.76,-85.62,32.0,68,20,8.05,US,1605363772
282,cardoso,-20.08,-49.91,87.4,49,74,7.25,BR,1605364023
283,atbasar,51.8,68.33,19.67,97,97,4.05,KZ,1605364023
284,gharo,24.74,67.59,82.4,42,0,5.82,PK,1605364023
285,klaksvik,62.23,-6.59,44.6,81,0,12.75,FO,1605364023
286,mahibadhoo,3.78,72.97,82.83,79,100,12.21,MV,1605364024
287,aklavik,68.22,-135.01,-0.4,77,75,5.82,CA,1605364024
288,isangel,-19.55,169.27,75.31,84,40,4.97,VU,1605364024
289,tarko-sale,64.92,77.78,-12.03,90,7,4.43,RU,1605364024
290,caravelas,-17.71,-39.25,85.55,61,79,11.63,BR,1605364024
291,alice springs,-23.7,133.88,93.2,20,84,14.99,AU,1605363789
292,kuytun,54.34,101.5,17.58,95,97,4.54,RU,1605364024
293,codrington,-38.27,141.97,48.7,92,0,9.13,AU,1605364024
294,cabo san lucas,22.89,-109.91,70.0,68,75,14.99,MX,1605364024
295,ankazoabo,-22.28,44.52,94.66,14,0,3.13,MG,1605364024
296,saskylakh,71.92,114.08,-13.63,87,0,5.46,RU,1605364024
297,richards bay,-28.78,32.04,82.49,57,0,15.82,ZA,1605364024
298,ejura,7.39,-1.36,93.15,28,0,4.47,GH,1605364024
299,burriana,39.89,-0.09,64.0,85,100,4.85,ES,1605364024
300,gushikawa,26.35,127.87,75.2,83,20,12.75,JP,1605364024
301,hamilton,39.18,-84.53,41.0,71,1,3.36,US,1605364024
302,kaputa,-8.47,29.66,81.0,62,100,4.88,ZM,1605364024
303,bayaguana,18.76,-69.64,82.4,78,75,3.36,DO,1605364025
304,camopi,3.17,-52.32,90.64,50,84,4.65,GF,1605364025
305,kambove,-10.88,26.6,76.91,69,97,1.7,CD,1605364025
306,launceston,-41.45,147.17,51.8,71,90,9.17,AU,1605364025
307,fallon,39.47,-118.78,28.99,79,1,3.36,US,1605364025
308,tilichiki,60.47,166.1,7.27,93,71,4.92,RU,1605364025
309,madaras,46.06,19.26,52.16,65,98,2.91,HU,1605364025
310,sechura,-5.56,-80.82,66.49,74,99,7.65,PE,1605364025
311,kodiak,57.79,-152.41,33.8,50,1,9.17,US,1605364025
312,lodeynoye pole,60.73,33.55,36.79,86,98,5.44,RU,1605364025
313,san jeronimo,-11.95,-75.28,57.31,51,33,2.21,PE,1605364026
314,muroto,33.28,134.15,62.55,53,0,13.87,JP,1605364026
315,port-cartier,50.03,-66.87,33.01,95,90,11.41,CA,1605364026
316,souillac,-20.52,57.52,75.2,94,40,2.24,MU,1605364026
317,dwarka,22.24,68.97,81.0,57,0,8.23,IN,1605364026
318,palaikastron,35.2,26.25,64.0,67,0,8.01,GR,1605364026
319,ancud,-41.87,-73.82,55.99,76,75,3.36,CL,1605364026
320,karoi,-16.81,29.69,85.48,30,46,3.62,ZW,1605364026
321,winnemucca,40.97,-117.74,30.2,68,1,6.93,US,1605364026
322,puerto baquerizo moreno,-0.9,-89.6,68.38,81,75,14.05,EC,1605364026
323,santa helena,-2.23,-45.3,92.1,51,42,6.02,BR,1605364026
324,kungurtug,50.6,97.52,17.17,90,11,1.72,RU,1605364026
325,ankang,32.68,109.02,57.13,61,0,3.53,CN,1605364026
326,yatou,37.15,122.38,48.88,65,0,4.25,CN,1605364026
327,valle de allende,26.93,-105.4,51.85,46,2,5.79,MX,1605364026
328,jaisalmer,26.91,70.92,77.5,23,0,7.58,IN,1605363947
329,kalmunai,7.42,81.82,80.13,83,94,4.29,LK,1605363967
330,cururupu,-1.83,-44.87,89.89,56,42,8.28,BR,1605364027
331,yumen,40.28,97.2,34.72,79,0,14.47,CN,1605364027
332,vao,-22.67,167.48,74.23,87,0,10.29,NC,1605364027
333,tautira,-17.73,-149.15,75.2,83,20,1.12,PF,1605364027
334,port elizabeth,-33.92,25.57,68.0,72,20,21.92,ZA,1605363807
335,gobabis,-22.45,18.97,89.6,19,94,5.82,NA,1605364027
336,buin,-33.73,-70.75,64.4,72,75,3.36,CL,1605363848
337,shingu,33.73,135.98,52.63,60,0,5.01,JP,1605364027
338,bosaso,11.28,49.18,79.75,64,60,7.56,SO,1605364027
339,kelvington,52.17,-103.53,28.4,86,100,8.05,CA,1605364027
340,verkhoyansk,67.54,133.38,-16.24,85,70,1.23,RU,1605364027
341,benjamin constant,-4.38,-70.03,80.6,78,75,3.36,BR,1605364027
342,bose,45.46,8.01,57.99,70,58,1.01,IT,1605364027
343,scarborough,54.28,-0.4,55.0,92,100,5.01,GB,1605364027
344,khor,47.89,134.95,27.81,96,0,6.24,RU,1605364028
345,ponta delgada,37.73,-25.67,66.2,93,75,14.99,PT,1605364028
346,markova,48.68,24.41,50.0,66,0,1.25,UA,1605364028
347,ambilobe,-13.2,49.05,82.49,69,22,6.6,MG,1605364028
348,comodoro rivadavia,-45.87,-67.5,60.8,44,40,9.17,AR,1605363941
349,kapuskasing,49.42,-82.43,26.6,86,13,9.17,CA,1605363982
350,walvis bay,-22.96,14.51,71.6,49,0,17.22,NA,1605364028
351,yeniseysk,58.45,92.17,18.97,98,72,2.62,RU,1605364028
352,oranjestad,12.52,-70.03,84.2,79,75,17.22,AW,1605364028
353,huaiyin,33.59,119.02,56.5,82,36,9.51,CN,1605364028
354,leninskoye,41.76,69.39,39.2,69,0,4.7,KZ,1605364028
355,salalah,17.02,54.09,82.4,51,0,4.7,OM,1605364028
356,gbarnga,7.0,-9.47,90.5,29,0,4.5,LR,1605364028
357,vasylivka,47.44,35.27,41.0,56,0,4.47,UA,1605364028
358,luba,3.46,8.55,81.55,78,64,10.71,GQ,1605364028
359,umm lajj,25.02,37.27,81.3,55,0,9.48,SA,1605364028
360,concarneau,47.88,-3.92,59.0,93,90,21.92,FR,1605364028
361,kosh,40.3,44.16,48.2,49,6,1.12,AM,1605364028
362,kalangala,-0.31,32.23,77.0,73,20,9.17,UG,1605364029
363,nelson bay,-32.72,152.15,64.99,93,0,5.82,AU,1605364029
364,yichang,30.71,111.28,57.0,68,0,1.41,CN,1605364029
365,chippewa falls,44.94,-91.39,33.01,58,1,14.99,US,1605363912
366,sommerda,51.15,11.1,59.0,67,0,12.75,DE,1605364029
367,pimenta bueno,-11.67,-61.19,93.38,45,9,4.29,BR,1605364029
368,poya,-21.35,165.15,74.55,84,0,3.53,NC,1605364029
369,nemuro,43.32,145.57,41.45,71,20,15.93,JP,1605364029
370,camacha,33.08,-16.33,73.4,83,20,14.99,PT,1605364029
371,ucluelet,48.93,-125.55,35.01,89,27,6.87,CA,1605364029
372,priladozhskiy,59.85,31.48,32.0,99,80,6.22,RU,1605364029
373,raudeberg,61.99,5.14,48.0,84,100,23.04,NO,1605364029
374,veraval,20.9,70.37,80.55,65,0,3.6,IN,1605364029
375,romny,50.75,33.47,33.69,87,96,4.59,UA,1605364029
376,vallentuna,59.53,18.08,48.0,93,75,10.29,SE,1605363945
377,greencastle,39.64,-86.86,36.0,75,1,6.93,US,1605364029
378,paka,4.64,103.44,80.6,94,82,2.24,MY,1605364029
379,valdivia,-39.81,-73.25,57.2,67,75,5.82,CL,1605363818
380,panguipulli,-39.63,-72.33,57.2,67,75,5.82,CL,1605364029
381,rundu,-17.93,19.77,86.31,35,100,4.21,NA,1605364030
382,kita,13.03,-9.49,95.05,11,0,7.87,ML,1605364030
383,sikeston,36.88,-89.59,46.4,87,1,9.17,US,1605364030
384,bathsheba,13.22,-59.52,86.0,74,75,12.75,BB,1605364030
385,coahuayana,18.73,-103.68,69.8,83,40,2.51,MX,1605364030
386,svetlyy,54.67,20.13,44.6,93,75,6.71,RU,1605364030
387,kahului,20.89,-156.47,73.0,68,40,5.82,US,1605363732
388,ponta do sol,32.67,-17.1,71.6,88,40,16.11,PT,1605364030
389,olinda,-8.01,-34.86,84.2,74,75,11.41,BR,1605364030
390,honiara,-9.43,159.95,75.2,100,20,4.99,SB,1605363916
391,naze,28.37,129.48,75.2,69,20,16.11,JP,1605364030
392,la crosse,43.8,-91.24,34.0,50,1,16.11,US,1605363821
393,mbuji-mayi,-6.15,23.6,77.41,81,99,9.93,CD,1605364030
394,lagoa,39.05,-27.98,66.16,91,100,12.26,PT,1605364030
395,kitui,-1.37,38.01,72.72,77,82,9.98,KE,1605363984
396,mahajanga,-15.72,46.32,86.0,66,20,12.75,MG,1605364030
397,barcelos,41.54,-8.62,62.6,93,75,16.11,PT,1605364030
398,moratuwa,6.77,79.88,82.4,78,20,5.82,LK,1605363913
399,jiuquan,39.74,98.52,35.49,77,0,4.12,CN,1605364031
400,telimele,10.92,-13.33,89.85,24,0,5.19,GN,1605364031
401,marsh harbour,26.54,-77.06,79.75,73,1,4.65,BS,1605364031
402,shu,43.6,73.76,36.73,71,100,4.27,KZ,1605364031
403,nelspruit,-25.47,30.97,89.6,18,0,9.17,ZA,1605364031
404,bellegarde-sur-valserine,46.11,5.82,62.6,51,0,4.7,FR,1605364031
405,marzuq,14.4,46.47,79.03,18,92,10.2,YE,1605364031
406,foumban,5.73,10.9,81.66,44,55,5.3,CM,1605364031
407,cabo rojo,18.09,-67.15,84.0,67,97,1.01,PR,1605363871
408,sarti,40.1,23.98,60.17,61,6,6.24,GR,1605364031
409,ola,59.58,151.28,21.9,96,100,16.17,RU,1605364032
410,sept-iles,50.2,-66.38,33.01,94,90,11.41,CA,1605364032
411,maturin,9.75,-63.18,83.17,78,100,3.13,VE,1605363960
412,san vicente,-26.62,-54.13,88.54,30,0,5.35,AR,1605364032
413,meulaboh,4.14,96.13,79.48,86,100,3.02,ID,1605364032
414,nantucket,41.28,-70.1,51.8,57,1,13.87,US,1605363841
415,severobaykalsk,55.65,109.32,14.61,85,0,6.8,RU,1605364032
416,labrea,-7.26,-64.8,92.41,51,99,2.66,BR,1605363793
417,shelopugino,51.65,117.56,17.69,97,24,1.9,RU,1605364032
418,novikovo,51.15,37.89,33.75,87,100,2.8,RU,1605364032
419,iranshahr,27.2,60.68,69.8,40,20,16.11,IR,1605364032
420,hobyo,5.35,48.53,82.08,68,0,12.77,SO,1605364032
421,hilton head island,32.22,-80.75,66.2,72,1,4.41,US,1605364016
422,biak,-0.91,122.88,78.84,78,5,0.85,ID,1605364032
423,phuket,8.0,98.25,86.0,88,20,2.24,TH,1605364032
424,pafos,34.77,32.42,71.6,64,20,13.87,CY,1605364032
425,cadiz,36.5,-5.75,68.0,82,75,10.29,ES,1605364033
426,bangalore,12.98,77.6,75.2,73,20,4.7,IN,1605364033
427,muskegon,43.3,-86.13,33.01,90,20,10.29,US,1605364033
428,axim,4.87,-2.24,84.13,69,23,8.79,GH,1605364033
429,sisimiut,66.94,-53.67,14.11,87,16,11.48,GL,1605364033
430,waingapu,-9.66,120.26,83.03,67,0,3.2,ID,1605364033
431,egvekinot,66.32,-179.17,4.57,89,61,4.61,RU,1605364033
432,tiksi,71.69,128.87,-7.64,91,60,3.69,RU,1605364033
433,leningradskiy,69.38,178.42,5.13,87,36,6.38,RU,1605364033
434,necochea,-38.55,-58.74,72.0,81,100,10.0,AR,1605364033
435,magaria,13.0,8.91,94.77,15,96,14.7,NE,1605364033
436,jumla,29.27,82.18,46.31,54,0,4.79,NP,1605364033
437,itarema,-2.92,-39.92,90.0,54,98,19.62,BR,1605364033
438,novoagansk,61.94,76.66,-1.84,93,1,6.71,RU,1605364033
439,tariba,7.82,-72.22,78.8,74,40,4.7,VE,1605364033
440,srednekolymsk,67.45,153.68,-15.52,87,0,1.5,RU,1605364033
441,waddan,29.16,16.14,73.47,35,0,7.74,LY,1605364033
442,flin flon,54.77,-101.86,21.2,92,90,3.36,CA,1605364033
443,doha,25.29,51.53,81.0,36,0,16.11,QA,1605363912
444,nhulunbuy,-12.23,136.77,80.6,83,92,3.36,AU,1605364034
445,tiarei,-17.53,-149.33,75.2,83,20,1.12,PF,1605364034
446,vestmanna,62.16,-7.17,44.6,81,0,12.75,FO,1605364034
447,drayton valley,53.22,-114.99,22.62,96,100,8.1,CA,1605364034
448,krasnyy yar,46.53,48.35,39.2,60,0,2.24,RU,1605364034
449,udachnyy,66.42,112.4,-0.4,84,90,4.47,RU,1605364034
450,nenjiang,49.18,125.22,25.27,91,0,3.51,CN,1605364034
451,luanda,-8.84,13.23,84.2,66,20,11.41,AO,1605364034
452,abu samrah,35.3,37.18,67.71,43,98,7.18,SY,1605364034
453,totolapa,18.52,-96.18,71.6,94,40,3.4,MX,1605364034
454,acarau,-2.89,-40.12,90.84,50,96,19.15,BR,1605364034
455,mackay,-21.15,149.2,73.99,94,45,3.36,AU,1605364034
456,matay,28.42,30.78,78.91,36,0,16.98,EG,1605364034
457,puerto escondido,15.85,-97.07,75.2,83,20,8.05,MX,1605364034
458,chagoda,59.16,35.33,35.92,96,100,5.44,RU,1605364034
459,ariquemes,-9.91,-63.04,90.32,52,99,3.8,BR,1605364034
460,pitimbu,-7.47,-34.81,86.0,70,75,14.99,BR,1605364034
461,cherskiy,68.75,161.3,-8.37,86,100,6.49,RU,1605364035
462,jodhpur,26.29,73.03,78.17,28,2,6.53,IN,1605364035
463,acapulco,16.86,-99.89,78.8,78,40,4.7,MX,1605363739
464,shieli,44.17,66.75,37.33,69,100,10.92,KZ,1605364035
465,gualeguaychu,-33.01,-58.52,75.99,71,61,1.99,AR,1605364035
466,padang,-0.95,100.35,80.06,79,100,2.95,ID,1605363857
467,mitsamiouli,-11.38,43.28,79.5,78,71,10.98,KM,1605364035
468,oranjemund,-28.55,16.43,65.35,65,0,16.62,NA,1605364035
469,alofi,-19.06,-169.92,73.4,94,60,8.05,NU,1605364035
470,pisco,-13.7,-76.22,64.99,88,90,4.7,PE,1605364035
471,ranfurly,-45.13,170.1,48.99,76,71,5.88,NZ,1605364035
472,arman,59.7,150.17,19.85,96,100,11.36,RU,1605364035
473,baykit,61.67,96.37,2.26,90,43,1.59,RU,1605364035
474,nagornskiy,58.77,57.55,8.33,95,0,3.49,RU,1605364035
475,osa,57.28,55.46,14.09,94,0,4.94,RU,1605364035
476,saint-pierre,-21.34,55.48,75.2,78,75,9.17,RE,1605364035
477,falmouth,50.15,-5.07,57.2,93,100,35.57,GB,1605364035
478,parry sound,45.35,-80.03,35.01,64,85,0.38,CA,1605364036
479,semnan,35.57,53.4,47.84,54,7,2.73,IR,1605364036
480,iskenderun,36.59,36.17,71.01,49,40,3.36,TR,1605364036
481,shelburne,44.08,-80.2,39.0,75,83,5.84,CA,1605363790
482,filadelfia,39.95,-75.16,50.0,55,20,12.75,US,1605364027
483,airai,-8.93,125.41,64.49,87,0,0.94,TL,1605364036
484,pitanga,-24.76,-51.76,82.94,42,0,5.99,BR,1605363882
485,margate,51.38,1.39,59.0,76,100,8.01,GB,1605364036
486,eilenburg,51.46,12.63,61.0,67,0,3.36,DE,1605364036
487,ridgecrest,35.62,-117.67,43.0,52,0,3.0,US,1605364036
488,summerville,33.02,-80.18,69.8,93,90,3.36,US,1605364036
489,mogzon,51.74,111.96,17.82,95,88,1.97,RU,1605364036
490,partizanskoye,55.5,94.39,20.53,92,97,1.54,RU,1605364036
491,kununurra,-15.77,128.73,86.0,74,1,11.41,AU,1605364036
492,nishihara,26.18,127.76,75.2,88,20,13.87,JP,1605364036
493,mackenzie,55.3,-123.17,23.0,100,1,4.7,CA,1605364036
494,tabas,33.6,56.92,59.0,40,0,6.93,IR,1605364036
495,haines junction,60.75,-137.51,15.8,85,99,1.12,CA,1605364037
496,dali,25.7,100.18,52.97,68,0,2.35,CN,1605364037
497,havelock,34.88,-76.9,61.0,72,1,13.87,US,1605363759
498,karratha,-20.74,116.85,76.69,60,0,19.3,AU,1605364037
499,kudahuvadhoo,2.67,72.89,83.16,74,100,6.15,MV,1605364037
500,san rafael,-34.62,-68.33,66.31,36,0,13.38,AR,1605364037
501,kirakira,-10.45,161.92,79.59,81,17,5.97,SB,1605364037
502,pozoblanco,38.38,-4.85,60.8,93,90,4.7,ES,1605364037
503,tarakan,3.3,117.63,82.96,76,86,7.58,ID,1605364037
504,shymkent,42.3,69.6,37.4,74,40,13.42,KZ,1605364037
505,conde,-7.26,-34.91,86.0,70,75,14.99,BR,1605363973
506,athabasca,54.72,-113.29,17.6,92,100,4.7,CA,1605364037
507,lompoc,34.64,-120.46,50.0,100,90,4.7,US,1605364037
508,kapoeta,4.77,33.59,90.7,34,97,12.37,SS,1605364037
509,fairbanks,64.84,-147.72,15.8,85,90,2.24,US,1605363931
510,sibolga,1.74,98.78,79.5,81,100,2.24,ID,1605364037
511,vangaindrano,-23.35,47.6,71.55,73,87,8.32,MG,1605364037
512,kyakhta,50.35,106.45,22.48,93,12,2.71,RU,1605364037
513,kirkwall,58.98,-2.96,50.0,87,20,21.92,GB,1605364038
514,vila,42.03,-8.16,57.0,79,100,7.0,PT,1605364038
515,komsomolskiy,40.43,71.72,42.8,81,90,4.7,UZ,1605364038
516,powell,40.16,-83.08,34.0,92,1,5.21,US,1605363805
517,fare,-16.7,-151.02,79.79,77,87,8.86,PF,1605364038
518,wahiawa,21.5,-158.02,75.2,94,20,5.44,US,1605364038
519,oistins,13.07,-59.53,86.0,74,75,12.75,BB,1605364038
520,marawi,8.0,124.29,79.0,86,7,5.99,PH,1605364038
521,namibe,-15.2,12.15,75.06,70,30,12.5,AO,1605364038
522,awbari,26.59,12.78,74.19,28,0,10.63,LY,1605364038
523,nizhnyaya tavda,57.67,66.17,11.64,95,100,12.3,RU,1605364038
524,hirara,24.8,125.28,75.9,75,0,20.54,JP,1605364038
525,chicama,-7.84,-79.15,64.4,82,90,6.93,PE,1605364038
526,rivadavia,-33.19,-68.46,62.6,67,75,20.8,AR,1605364038
527,holland,42.79,-86.11,32.0,80,1,13.87,US,1605363750
528,grand-lahou,5.14,-5.02,83.12,74,25,4.79,CI,1605364038
529,labuhan,-6.88,112.21,83.8,77,69,5.93,ID,1605364038
530,gari,59.43,62.35,12.72,90,0,6.69,RU,1605364039
531,lixourion,38.2,20.43,68.0,82,20,14.99,GR,1605364039
532,kayerkan,69.35,87.76,-20.2,75,0,6.71,RU,1605364039
533,bara,10.37,10.73,96.8,25,3,18.34,NG,1605364039
534,mattru,7.62,-11.83,91.98,37,0,4.88,SL,1605364039
535,mehran,33.12,46.16,55.4,43,0,4.7,IR,1605364039
536,las vegas,36.17,-115.14,55.4,28,1,14.99,US,1605364018
537,palma,39.57,2.65,73.4,64,0,6.93,ES,1605363744
538,zabid,14.2,43.32,85.1,59,79,10.47,YE,1605364039
539,maicao,11.38,-72.24,83.35,71,89,5.68,CO,1605364039
540,madang,-5.22,145.8,79.16,86,96,4.36,PG,1605364039
541,gubkinskiy,64.43,76.5,-13.31,90,19,1.19,RU,1605364039
542,ningbo,29.88,121.55,62.01,87,7,2.24,CN,1605364025
543,never,46.99,3.16,66.2,59,0,10.29,FR,1605364039
544,hasanabad,36.55,61.05,48.2,61,0,3.56,IR,1605364040
545,plettenberg bay,-34.05,23.37,67.14,66,22,7.56,ZA,1605364040
546,aden,12.78,45.04,81.03,67,0,8.48,YE,1605363763
547,zhuhai,22.28,113.57,71.6,78,40,14.99,CN,1605364040
548,clinton,42.59,-82.92,35.01,80,20,4.88,US,1605364040
549,letka,59.6,49.42,15.42,93,1,3.49,RU,1605364040
550,maraba,-5.37,-49.12,91.4,63,75,5.82,BR,1605364040
551,teeli,51.03,90.23,15.89,92,98,2.21,RU,1605364040
552,pangnirtung,66.15,-65.71,8.13,83,94,3.24,CA,1605364040
553,pingliang,35.54,106.69,46.0,37,77,11.99,CN,1605364040
554,ugoofaaru,5.67,73.0,83.84,75,100,6.35,MV,1605364040
555,puerto narino,-3.77,-70.38,80.6,83,75,5.82,CO,1605364040
556,kerema,-7.96,145.78,78.98,83,100,5.41,PG,1605364040
557,parabel,58.7,81.48,17.62,97,83,3.78,RU,1605364040
558,harrisburg,40.27,-76.88,46.99,61,1,6.93,US,1605363892
559,tabuk,17.42,121.44,74.93,89,95,4.36,PH,1605364041
560,adrar,20.5,-10.07,89.76,12,23,14.81,MR,1605364041
561,snezhnogorsk,69.19,33.25,35.6,80,0,6.71,RU,1605364041
562,rocha,-34.48,-54.33,76.12,63,43,5.01,UY,1605364041
563,zolotonosha,49.67,32.04,40.66,69,100,4.38,UA,1605364041
564,muhoroni,-0.15,35.2,73.4,64,75,16.11,KE,1605364041
565,kargasok,59.06,80.86,16.45,98,90,5.12,RU,1605364041
